{"-2":{"LocationName":"Kho Hà Nội","OpenHours":{"OpenHours":null},"Latitude":20.9515385332713,"Longitude":105.835231365636,"ID":"-2","Optionals":{"CATLocationID":"1096","Code":"Kho Hà Nội","Address":"Đường Phan Trọng Tuệ, Văn Điển, Thanh Trì, Hà Nội","EconomicZone":null,"CountryID":"1","ProvinceID":"1","DistrictID":"11"}},"-1":{"LocationName":"BDHeadOffice","OpenHours":{"OpenHours":null},"Latitude":21.0426915,"Longitude":105.8329801,"ID":"-1","Optionals":{"CATLocationID":"5782","Code":"BDHeadOffice","Address":"No1, Thuy Khue, Tay Ho, Ha Noi","EconomicZone":null,"CountryID":"1","ProvinceID":"1","DistrictID":"5"}},"119":{"LocationName":"VINALINESDOML","OpenHours":{"OpenHours":{}},"Latitude":20.861405,"Longitude":106.7078113,"ID":"119","Optionals":{"Code":"VINALINESDOML","CATLocationID":"5784","Address":"","EconomicZone":null,"CountryID":"1","ProvinceID":"3","DistrictID":"56"}},"118":{"LocationName":"Kho Hải Phòng","OpenHours":{"OpenHours":{}},"Latitude":20.8696429,"Longitude":106.6749199,"ID":"118","Optionals":{"Code":"STKHP","CATLocationID":"5767","Address":"123 Hồng Bàng","EconomicZone":null,"CountryID":"1","ProvinceID":"3","DistrictID":"54"}},"120":{"LocationName":"Cảng chuyên dùng xếp dỡ xăng, dầu, gas hóa lỏng (Đình Vũ)","OpenHours":{"OpenHours":{}},"Latitude":20.8303004,"Longitude":106.7743556,"ID":"120","Optionals":{"Code":"VNXDG01","CATLocationID":"5772","Address":"KCN Đình Vũ, phường Đông Hải 2, Hải An, HP","EconomicZone":null,"CountryID":"1","ProvinceID":"3","DistrictID":"58"}}}